     2.01           OBSERVATION DATA    G                   RINEX VERSION / TYPE
Gnsser              GeoSolution         20180718 175725 UTC PGM / RUN BY / DATE
Built by Gnsser. www.gnsser.com, gnsser@163.com             COMMENT
Gnsser, a GNSS data processing software, created in China   COMMENT
CONCATENATED OBSERVATION FILES                              COMMENT
sbf2rin-10.2.0                          01-JAN-18 01:01     COMMENT
Approx XYZ updated with igs18P19821_all_CoordOnly.snx 2018-0COMMENT
HERS                                                        MARKER NAME
13212M007                                                   MARKER NUMBER
                                                            OBSERVER / AGENCY
2001062             SEPT POLARX3ETR     2.1                 REC # / TYPE / VERS
10250002            LEIAR25.R3      NONE                    ANT # / TYPE
Built by Gnsser. www.gnsser.com, gnsser@163.com             COMMENT
Gnsser, a GNSS data processing software, created in China   COMMENT
Approx XYZ updated with igs18P19821_all_CoordOnly.snx 2018-0COMMENT
  4033469.9276    23673.1031  4924301.4359                  APPROX POSITION XYZ
        0.0096        0.0000        0.0000                  ANTENNA: DELTA H/E/N
     4    L1    L2    P2    P1                              # / TYPES OF OBSERV
    30.000                                                  INTERVAL
  2018     1     1     0     0    0.0000000                 TIME OF FIRST OBS
  2018     1     1    23    59   30.0000000                 TIME OF LAST OBS
     0                                                      LEAP SECONDS
                                                            END OF HEADER
 18 01 01 00 00 00.0000000  0  9G05G16G20G21G25G26G27G29G31          0.000000000
 126821078.928 7  98821607.305 4  24133241.235 4  24133243.234 4
 116900152.774 7  91091000.900 5  22245354.806 5  22245357.132 5
 123575347.211 7  96292473.119 4  23515602.814 4  23515604.124 4
 112671531.000 8  87795990.562 6  21440674.866 6  21440676.373 6
 126972542.890 7  98939647.575 4  24162070.846 4  24162069.988 4
 108853390.952 8  84820827.257 6  20714108.989 6  20714107.515 6
 127667374.875 6  99481067.449 3  24294292.486 3  24294290.729 3
 114400007.364 8  89142871.711 6  21769591.274 6  21769593.076 6
 116097244.159 8  90465369.748 6  22092570.021 6  22092572.240 6
 18 01 01 00 00 30.0000000  0  9G05G16G20G21G25G26G27G29G31          0.000000000
 126830555.368 7  98828991.553 4  24135044.171 4  24135046.036 4
 116814814.888 7  91024503.841 5  22229116.185 5  22229117.451 5
 123507992.521 7  96239988.966 4  23502786.289 4  23502787.325 4
 112635987.930 8  87768294.676 6  21433911.139 6  21433912.842 6
 127076401.496 7  99020576.362 4  24181835.440 4  24181833.337 4
 108813554.871 8  84789786.164 6  20706528.314 6  20706526.899 6
 127565944.605 6  99402030.931 3  24274990.678 3  24274988.662 3
 114478344.694 8  89203913.778 6  21784498.689 6  21784500.345 6
 116177705.433 8  90528066.840 6  22107880.874 6  22107883.634 6
 18 01 01 00 01 00.0000000  0  9G05G16G20G21G25G26G27G29G31          0.000000000
 126840615.468 7  98836830.611 4  24136958.303 4  24136961.195 4
 116729708.989 7  90958187.566 5  22212921.068 5  22212922.582 5
 123441014.974 7  96187798.658 4  23490040.761 4  23490042.052 4
 112600914.103 8  87740964.428 6  21427236.871 6  21427238.636 6
 127180395.792 7  99101610.840 4  24201625.218 4  24201623.128 4
 108774131.877 8  84759066.939 7  20699026.264 7  20699024.903 7
 127464627.045 6  99323082.238 3  24255710.423 3  24255708.648 3
 114556907.010 8  89265131.145 6  21799448.763 6  21799450.091 6
 116258546.700 8  90591060.039 6  22123264.486 6  22123266.685 6
 18 01 01 00 01 30.0000000  0 10G05G16G18G20G21G25G26G27G29G31       0.000000000
 126851259.233 7  98845124.471 4  24138983.912 4  24138986.467 4
 116644836.503 7  90892053.159 5  22196769.956 5  22196772.051 5
 133600302.628 6 104104125.43811  25423290.075 1  25423291.800 1
 123374417.488 7  96135904.535 4  23477367.999 4  23477368.699 4
 112566309.371 8  87713999.706 6  21420651.709 6  21420653.548 6
 127284524.500 7  99182750.085 4  24221439.393 4  24221437.881 4
 108735123.399 8  84728670.713 6  20691603.326 6  20691602.007 6
 127363423.172 6  99244222.134 3  24236452.030 3  24236449.888 3
 114635692.732 8  89326522.601 6  21814440.933 6  21814442.779 6
 116339765.276 8  90654347.210 6  22138719.960 6  22138722.285 6
 18 01 01 00 02 00.0000000  0  9G05G16G20G21G25G26G27G29G31          0.000000000
 126862486.611 7  98853873.103 4  24141120.131 4  24141122.814 4
 116560199.623 7  90826102.341 5  22180663.776 5  22180666.208 5
 123308202.560 7  96084308.492 4  23464767.607 4  23464768.347 4
 112532174.364 8  87687401.009 6  21414156.029 6  21414157.758 6
 127388786.444 7  99263993.150 4  24241280.050 4  24241278.716 4
 108696530.855 8  84698598.600 7  20684259.549 7  20684258.182 7
 127262333.966 6  99165451.350 3  24217214.886 3  24217213.626 3
 114714700.108 8  89388086.787 6  21829475.498 6  21829477.452 6
 116421359.017 8  90717926.725 6  22154246.825 6  22154249.532 6
 18 01 01 00 02 30.0000000  0 10G05G16G18G20G21G25G26G27G29G31       0.000000000
 126874297.323 7  98863076.246 4  24143368.213 4  24143370.259 4
 116475799.621 7  90760336.109 5  22164603.228 5  22164605.453 5
 133426187.77416 103968448.90811  25390156.979 1  25390158.744 1
 123242373.031 7  96033012.789 4  23452240.186 4  23452241.557 4
 112498509.857 8  87661168.941 6  21407749.830 6  21407751.709 6
 127493180.359 7  99345339.030 4  24261145.752 4  24261144.263 4
 108658355.724 8  84668851.748 7  20676995.148 7  20676993.256 7
 127161360.421 6  99086770.749 3  24198000.744 3  24197999.137 3
 114793927.562 8  89449822.453 6  21844552.119 6  21844553.996 6
 116503325.463 8  90781796.675 6  22169844.613 6  22169847.047 6
 18 01 01 00 03 00.0000000  0 10G05G16G18G20G21G25G26G27G29G31       0.000000000
 126886691.683 7  98872734.203 4  24145726.587 4  24145728.695 4
 116391638.446 7  90694755.991 5  22148588.080 5  22148590.140 5
 133339017.735 6 103900524.108 2  25373568.463 2  25373571.203 2
 123176931.707 7  95982019.551 4  23439787.513 4  23439788.339 4
 112465316.265 8  87635303.810 6  21401433.337 6  21401435.096 6
 127597704.961 7  99426786.771 4  24281036.276 4  24281034.459 4
 108620599.415 8  84639431.251 6  20669810.314 6  20669808.697 6
 127060503.496 6  99008180.997 4  24178808.044 4  24178807.357 4
 114873373.728 8  89511728.556 6  21859670.107 6  21859672.048 6
 116585662.265 8  90845955.224 6  22185513.076 6  22185514.883 6
 18 01 01 00 03 30.0000000  0 10G05G16G18G20G21G25G26G27G29G31       0.000000000
 126899669.265 7  98882846.616 4  24148195.785 4  24148198.169 4
 116307717.905 7  90629363.356 5  22132618.186 5  22132620.549 5
 133251773.820 5 103832541.945 1  25356966.607 1  25356968.641 1
 123111881.253 7  95931330.892 4  23427408.559 4  23427409.271 4
 112432594.355 8  87609806.225 6  21395206.567 6  21395208.506 6
 127702359.092 7  99508335.433 4  24300950.986 4  24300949.671 4
 108583263.401 8  84610338.254 7  20662705.487 7  20662704.179 7
 126959764.049 6  98929682.767 3  24159637.764 3  24159636.398 3
 114953037.184 8  89573803.972 6  21874829.409 6  21874831.179 6
 116668366.842 8  90910400.311 6  22201250.849 6  22201253.191 6
 18 01 01 00 04 00.0000000  0 10G05G16G18G20G21G25G26G27G29G31       0.000000000
 126913229.811 7  98893413.287 4  24150776.421 4  24150778.635 4
 116224039.850 7  90564159.688 5  22116694.295 5  22116697.076 5
 133164459.324 6 103764504.722 2  25340351.350 2  25340353.587 2
 123047224.194 7  95880948.765 4  23415105.015 4  23415105.648 4
 112400344.080 8  87584676.146 6  21389069.390 6  21389071.198 6
 127807141.464 7  99589983.996 4  24320890.394 4  24320888.867 4
 108546349.111 8  84581573.860 7  20655681.033 7  20655679.472 7
 126859143.147 6  98851276.933 4  24140490.625 4  24140489.731 4
 115032916.236 8  89636047.375 6  21890029.858 6  21890031.860 6
 116751436.781 8  90975130.131 6  22217058.508 6  22217060.702 6
 18 01 01 00 04 30.0000000  0 10G05G16G18G20G21G25G26G27G29G31       0.000000000
 126927373.106 7  98904434.043 4  24153467.752 4  24153470.760 4
 116140606.131 8  90499146.405 5  22100817.553 5  22100820.288 5
 133077075.938 5 103696413.603 1  25323722.915 1  25323723.759 1
 122982963.261 7  95830875.308 4  23402876.791 4  23402877.524 4
 112368566.483 8  87559914.384 6  21383022.232 6  21383024.328 6
 127912050.814 7  99671731.525 4  24340854.521 4  24340852.464 4
 108509857.932 8  84553139.170 7  20648736.939 7  20648735.134 7
 126758641.731 6  98772964.169 4  24121365.643 4  24121363.880 4
 115113008.721 8  89698457.084 6  21905270.878 6  21905272.782 6
 116834869.671 8  91040142.757 6  22232935.129 6  22232937.312 6
 18 01 01 00 05 00.0000000  0 10G05G16G18G20G21G25G26G27G29G31       0.000000000
 126942098.858 7  98915908.671 4  24156269.984 4  24156272.996 4
 116057418.473 7  90434324.857 5  22084987.951 5  22084989.942 5
 132989626.759 6 103628271.506 3  25307081.821 3  25307084.473 3
 122919101.536 7  95781112.929 4  23390723.860 4  23390725.112 4
 112337261.937 8  87535521.236 6  21377065.257 6  21377067.171 6
 128017085.925 7  99753577.045 4  24360841.940 4  24360839.700 4
 108473791.243 8  84525035.259 6  20641873.499 6  20641871.927 6
 126658260.723 6  98694745.290 4  24102263.395 4  24102262.715 4
 115193314.564 8  89761033.075 6  21920553.274 6  21920554.505 6
 116918663.282 8  91105436.476 6  22248880.502 6  22248883.241 6
 18 01 01 00 05 30.0000000  0 10G05G16G18G20G21G25G26G27G29G31       0.000000000
 126957406.916 7  98927837.039 4  24159182.826 4  24159185.972 4
 115974478.798 7  90369696.547 5  22069204.769 5  22069207.037 5
 132902114.060 6 103560079.863 2  25290429.087 2  25290430.200 2
 122855641.250 7  95731663.357 4  23378647.447 4  23378649.236 4
 112306431.307 8  87511497.378 6  21371198.591 6  21371200.095 6
 128122245.493 7  99835519.576 4  24380852.407 4  24380851.111 4
 108438150.531 8  84497263.283 6  20635091.170 6  20635089.839 6
 126558001.187 6  98616621.014 4  24083185.105 4  24083183.124 4
 115273831.638 8  89823773.624 6  21935875.132 6  21935876.393 6
 117002814.915 8  91171009.179 6  22264894.402 6  22264896.349 6
 18 01 01 00 06 00.0000000  0 10G05G16G18G20G21G25G26G27G29G31       0.000000000
 126973297.102 7  98940218.997 4  24162206.671 4  24162208.524 4
 115891788.712 7  90305262.711 5  22053469.728 5  22053471.688 5
 132814539.462 6 103491839.798 1  25273764.145 1  25273766.033 1
 122792585.431 7  95682528.958 4  23366648.912 4  23366650.114 4
 112276074.453 8  87487842.694 6  21365421.889 6  21365423.589 6
 128227528.291 7  99917558.080 4  24400886.886 4  24400886.325 4
 108402937.174 8  84469824.288 7  20628390.426 7  20628389.085 7
 126457863.954 7  98538592.021 4  24064129.277 4  24064128.010 4
 115354558.393 8  89886677.575 6  21951236.556 6  21951238.143 6
 117087322.199 8  91236858.980 6  22280975.854 6  22280977.979 6
 18 01 01 00 06 30.0000000  0 10G05G16G18G20G21G25G26G27G29G31       0.000000000
 126989768.667 7  98953054.006 4  24165341.677 4  24165343.308 4
 115809350.069 7  90241024.802 5  22037781.783 5  22037784.086 5
 132726905.372 5 103423553.540 1  25257087.833 1  25257087.902 1
 122729936.381 7  95633711.509 4  23354726.820 4  23354727.946 4
 112246191.455 8  87464557.244 6  21359735.264 6  21359737.008 6
 128332933.053 7  99999691.661 4  24420945.198 4  24420944.140 4
 108368152.540 8  84442719.376 7  20621771.190 7  20621769.776 7
 126357850.029 6  98460659.150 4  24045097.005 4  24045095.672 4
 115435493.427 8  89949743.817 6  21966638.022 6  21966639.600 6
 117172182.473 8  91302983.877 6  22297124.328 6  22297126.087 6
 18 01 01 00 07 00.0000000  0 10G05G16G18G20G21G25G26G27G29G31       0.000000000
 127006821.804 7  98966342.177 4  24168586.228 4  24168588.417 4
 115727164.641 7  90176984.211 5  22022142.498 5  22022144.697 5
 132639214.526 6 103355222.974 2  25240400.887 2  25240403.043 2
 122667696.641 7  95585213.020 4  23342882.507 4  23342884.255 4
 112216783.102 8  87441641.654 6  21354138.962 6  21354140.637 6
 128438458.580 7 100081919.318 4  24441026.531 4  24441024.620 4
 108333798.054 8  84415949.649 7  20615233.879 7  20615232.278 7
 126257960.432 6  98382823.150 4  24026089.188 4  24026087.725 4
 115516635.064 8  90012971.065 6  21982078.629 6  21982080.198 6
 117257393.392 8  91369381.984 6  22313339.129 6  22313341.177 6
 18 01 01 00 07 30.0000000  0 10G05G16G18G20G21G25G26G27G29G31       0.000000000
 127024455.724 7  98980082.914 4  24171941.751 4  24171944.419 4
 115645234.420 7  90113142.498 5  22006552.011 5  22006553.842 5
 132551469.278 5 103286849.990 2  25223703.249 2  25223705.021 2
 122605869.083 7  95537035.737 4  23331116.930 4  23331118.902 4
 112187850.024 8  87419096.399 6  21348633.174 6  21348634.950 6
 128544103.573 7 100164240.061 4  24461130.570 4  24461128.294 4
 108299875.066 8  84389516.156 7  20608778.632 7  20608776.763 7
 126158196.016 7  98305084.686 4  24007103.801 4  24007103.057 4
 115597982.007 8  90076358.287 6  21997558.434 6  21997560.312 6
 117342952.455 8  91436051.366 6  22329620.311 6  22329622.802 6
 18 01 01 00 08 00.0000000  0 10G05G16G18G20G21G25G26G27G29G31       0.000000000
 127042670.414 7  98994276.201 4  24175408.220 4  24175410.434 4
 115563560.860 7  90049500.754 5  21991010.024 5  21991012.275 5
 132463671.662 6 103218436.364 1  25206996.046 1  25206997.329 1
 122544456.558 7  95489181.818 4  23319431.337 4  23319432.045 4
 112159392.331 8  87396921.579 6  21343217.927 6  21343219.550 6
 128649866.733 7 100246652.915 4  24481255.877 4  24481254.707 4
 108266384.981 8  84363419.979 7  20602405.765 7  20602403.922 7
 126058557.861 7  98227444.629 4  23988143.858 4  23988142.427 4
 115679532.624 8  90139904.214 6  22013077.007 6  22013079.174 6
 117428857.281 8  91502990.185 6  22345967.172 6  22345970.187 6
 18 01 01 00 08 30.0000000  0 10G05G16G18G20G21G25G26G27G29G31       0.000000000
 127061465.057 7  99008921.352 4  24178984.566 4  24178987.064 4
 115482146.302 7  89986060.850 5  21975517.287 5  21975519.342 5
 132375823.838 6 103149983.372 1  25190278.966 1  25190281.072 1
 122483461.628 7  95441653.301 4  23307824.337 4  23307825.630 4
 112131410.305 8  87375117.402 6  21337893.253 6  21337894.794 6
 128755746.850 7 100329156.876 4  24501404.324 4  24501402.782 4
 108233329.136 8  84337662.180 7  20596115.327 7  20596113.324 7
 125959046.797 6  98149903.575 4  23969207.462 4  23969206.001 4
 115761285.518 8  90203607.758 6  22028634.471 6  22028635.955 6
 117515105.049 8  91570196.246 6  22362379.574 6  22362382.103 6
 18 01 01 00 09 00.0000000  0 10G05G16G18G20G21G25G26G27G29G31       0.000000000
 127080839.260 7  99024018.160 4  24182671.423 4  24182673.811 4
 115400992.119 7  89922823.831 5  21960073.734 5  21960076.068 5
 132287929.454 5 103081494.288 2  25173553.362 2  25173553.906 2
 122422886.043 7  95394451.548 4  23296297.152 4  23296298.484 4
 112103904.794 8  87353684.546 6  21332659.116 6  21332660.429 6
 128861742.641 7 100411750.991 4  24521574.709 4  24521573.190 4
 108200708.912 8  84312243.821 7  20589907.736 7  20589906.009 7
 125859663.801 6  98072462.394 4  23950295.432 4  23950294.070 4
 115843239.206 8  90267467.742 6  22044229.331 6  22044231.364 6
 117601693.286 8  91637667.575 6  22378856.886 6  22378859.497 6
 18 01 01 00 09 30.0000000  0 10G05G16G18G20G21G25G26G27G29G31       0.000000000
 127100792.993 7  99039566.555 4  24186468.604 4  24186470.713 4
 115320100.428 7  89859791.349 5  21944680.871 5  21944683.069 5
 132199990.351 6 103012970.463 2  25156819.147 2  25156820.451 2
 122362733.305 7  95347579.298 4  23284850.482 4  23284851.497 4
 112076875.973 8  87332623.147 6  21327515.784 6  21327517.368 6
 128967852.829 7 100494434.259 4  24541767.004 4  24541764.816 4
 108168525.667 8  84287165.965 7  20583783.388 7  20583781.831 7
 125760409.776 7  97995121.632 4  23931407.732 4  23931406.219 4
 115925392.363 8  90331483.191 6  22059862.686 6  22059864.470 6
 117688619.986 8  91705402.661 6  22395398.652 6  22395401.011 6
 18 01 01 00 10 00.0000000  0 10G05G16G18G20G21G25G26G27G29G31       0.000000000
 127121325.568 7  99055565.943 4  24190376.015 4  24190377.993 4
 115239472.910 7  89796964.720 5  21929338.273 5  21929340.082 5
 132112008.737 6 102944413.198 2  25140076.448 2  25140078.176 2
 122303005.789 7  95301038.380 4  23273484.735 4  23273485.663 4
 112050323.374 8  87311932.808 6  21322462.766 6  21322464.403 6
 129074076.154 7 100577205.656 4  24561980.661 4  24561979.018 4
 108136780.717 8  84262429.639 7  20577742.620 7  20577741.102 7
 125661285.799 6  97917882.220 4  23912544.679 4  23912544.153 4
 116007743.701 8  90395653.047 6  22075534.123 6  22075535.604 6
 117775882.298 8  91773399.246 6  22412004.224 6  22412006.419 6
 18 01 01 00 10 30.0000000  0 10G05G16G18G20G21G25G26G27G29G31       0.000000000
 127142436.596 7  99072016.083 4  24194392.552 4  24194395.354 4
 115159111.393 7  89734345.366 5  21914046.044 5  21914047.672 5
 132023987.333 6 102875825.095 2  25123326.850 2  25123328.086 2
 122243705.976 7  95254830.724 4  23262200.033 4  23262201.433 4
 112024248.007 8  87291614.346 6  21317500.709 6  21317502.779 6
 129180411.362 7 100660064.272 4  24582215.460 4  24582213.335 4
 108105475.447 8  84238035.928 7  20571785.484 7  20571783.769 7
 125562292.754 7  97840744.863 4  23893706.838 4  23893705.929 4
 116090291.272 8  90459975.819 6  22091242.155 6  22091243.957 6
 117863477.472 8  91841655.218 6  22428673.167 6  22428674.895 6
 18 01 01 00 11 00.0000000  0 10G05G16G18G20G21G25G26G27G29G31       0.000000000
 127164125.168 7  99088916.303 4  24198519.944 4  24198522.708 4
 115079017.592 8  89671934.612 5  21898804.290 5  21898806.358 5
 131935928.348 6 102807207.627 2  25106569.610 2  25106570.384 2
 122184836.194 7  95208958.178 4  23250997.952 4  23250998.665 4
 111998650.317 8  87271668.100 6  21312629.614 6  21312631.308 6
 129286857.169 7 100743009.050 4  24602471.101 4  24602469.681 4
 108074611.169 8  84213985.836 7  20565912.097 7  20565910.534 7
 125463431.610 7  97763710.219 4  23874894.257 4  23874893.781 4
 116173033.969 8  90524450.631 6  22106987.484 6  22106989.271 6
 117951403.217 8  91910168.766 6  22445404.544 6  22445406.938 6
 18 01 01 00 11 30.0000000  0 10G05G16G18G20G21G25G26G27G29G31       0.000000000
 127186390.775 7  99106266.164 4  24202757.339 4  24202759.352 4
 114999193.376 8  89609733.920 5  21883614.229 5  21883616.584 5
 131847834.348 6 102738563.130 3  25089806.713 3  25089807.592 3
 122126399.307 7  95163422.954 4  23239878.399 4  23239878.708 4
 111973530.362 8  87252094.118 6  21307849.512 6  21307851.208 6
 129393412.232 7 100826038.946 4  24622749.032 4  24622746.886 4
 108044189.211 8  84190280.401 7  20560122.969 7  20560121.488 7
 125364703.179 7  97686778.981 4  23856107.280 4  23856106.316 4
 116255970.176 8  90589076.250 6  22122769.727 6  22122771.400 6
 118039656.782 8  91978937.765 6  22462198.442 6  22462201.088 6
 18 01 01 00 12 00.0000000  0 10G05G16G18G20G21G25G26G27G29G31       0.000000000
 127209233.068 7  99124065.345 4  24207103.684 4  24207106.085 4
 114919640.723 7  89547744.826 5  21868475.779 5  21868478.230 5
 131759707.451 6 102669892.779 2  25073036.658 2  25073037.495 2
 122068397.631 7  95118226.850 4  23228839.966 4  23228841.326 4
 111948888.083 8  87232892.347 6  21303160.439 6  21303161.711 6
 129500075.328 7 100909153.039 4  24643044.726 4  24643043.773 4
 108014210.872 8  84166920.659 7  20554418.399 7  20554416.717 7
 125266108.510 7  97609951.959 4  23837345.452 4  23837343.911 4
 116339098.825 8  90653851.795 6  22138588.598 6  22138590.110 6
 118128235.832 8  92047960.391 5  22479054.751 5  22479057.045 5
 18 01 01 00 12 30.0000000  0 10G05G16G18G20G21G25G26G27G29G31       0.000000000
 127232651.176 7  99142313.223 4  24211560.282 4  24211562.333 4
 114840361.488 7  89485968.806 5  21853389.709 5  21853391.719 5
 131671550.774 6 102601199.236 2  25056261.289 2  25056262.647 2
 122010833.576 7  95073371.769 4  23217885.940 4  23217886.738 4
 111924724.001 8  87214063.207 6  21298562.149 6  21298563.830 6
 129606845.251 7 100992350.379 4  24663363.278 4  24663360.998 4
 107984677.479 8  84143907.615 7  20548798.419 7  20548797.026 7
 125167648.654 7  97533230.013 4  23818608.526 4  23818607.655 4
 116422417.958 8  90718775.782 6  22154443.616 6  22154445.423 6
 118217137.769 8  92117234.614 5  22495972.330 5  22495974.569 5
 18 01 01 00 13 00.0000000  0 10G05G16G18G20G21G25G26G27G29G31       0.000000000
 127256644.657 7  99161009.431 4  24216126.560 4  24216128.367 4
 114761357.630 8  89424407.380 5  21838355.604 5  21838357.514 5
 131583366.409 6 102532484.218 2  25039480.488 2  25039481.321 2
 121953709.979 7  95028859.881 4  23207015.765 4  23207016.875 4
 111901038.331 8  87195606.846 6  21294054.726 6  21294056.412 6
 129713720.612 7 101075629.861 4  24683700.441 4  24683699.014 4
 107955590.328 8  84121242.304 7  20543263.306 7  20543261.765 7
 125069324.515 6  97456613.890 4  23799898.215 4  23799897.097 4
 116505926.648 8  90783847.474 5  22170334.730 5  22170336.640 5
 118306360.013 8  92186758.438 5  22512950.652 5  22512952.669 5
 18 01 01 00 13 30.0000000  0 10G05G16G18G20G21G25G26G27G29G31       0.000000000
 127281212.668 7  99180153.356 4  24220801.378 4  24220803.149 4
 114682630.976 8  89363061.925 5  21823374.327 5  21823376.649 5
 131495157.056 5 102463749.586 2  25022694.706 2  25022693.793 2
 121897028.975 7  94984692.871 4  23196229.577 4  23196230.953 4
 111877831.110 8  87177523.297 6  21289638.512 6  21289640.037 6
 129820700.191 7 101158990.590 4  24704058.348 4  24704056.129 4
 107926950.726 8  84098925.727 7  20537813.534 7  20537811.471 7
 124971136.943 7  97380104.138 4  23781213.755 4  23781212.907 4
 116589623.270 8  90849065.610 6  22186261.742 6  22186263.845 6
 118395899.875 8  92256529.760 5  22529989.984 5  22529991.843 5
 18 01 01 00 14 00.0000000  0 10G05G16G18G20G21G25G26G27G29G31       0.000000000
 127306354.697 7  99199744.547 4  24225585.066 4  24225587.604 4
 114604183.395 7  89301933.943 5  21808446.441 5  21808448.591 5
 131406925.077 6 102394997.418 2  25005904.729 2  25005906.530 2
 121840793.119 7  94940872.731 4  23185528.505 4  23185529.431 4
 111855102.794 8  87159812.921 6  21285313.308 6  21285315.234 6
 129927782.710 7 101242431.503 4  24724435.460 4  24724433.566 4
 107898759.933 8  84076958.878 7  20532449.108 7  20532447.043 7
 124873086.894 7  97303701.513 4  23762555.682 4  23762554.466 4
 116673506.443 8  90914429.123 5  22202224.321 5  22202225.900 5
 118485754.842 8  92326546.605 5  22547089.317 5  22547090.599 5
 18 01 01 00 14 30.0000000  0 10G05G16G18G20G21G25G26G27G29G31       0.000000000
 127332069.916 7  99219782.380 4  24230479.082 4  24230481.301 4
 114526016.420 8  89241024.615 5  21793571.741 5  21793573.919 5
 131318672.953 6 102326229.587 3  24989110.625 3  24989112.750 3
 121785004.738 7  94897401.277 4  23174911.975 4  23174913.136 4
 111832853.251 8  87142475.623 6  21281079.196 6  21281081.287 6
 130034966.842 7 101325951.586 4  24744832.672 4  24744830.229 4
 107871019.226 8  84055342.751 7  20527169.959 7  20527168.220 7
 124775175.370 6  97227406.851 4  23743923.549 4  23743922.718 4
 116757574.683 8  90979936.816 5  22218221.783 5  22218223.577 5
 118575922.233 8  92396806.901 5  22564246.780 5  22564248.812 5
 18 01 01 00 15 00.0000000  0 10G05G16G18G20G21G25G26G27G29G31       0.000000000
 127358357.869 7  99240266.498 4  24235481.710 4  24235483.561 4
 114448131.801 8  89180335.302 5  21778750.879 5  21778752.766 5
 131230403.196 6 102257447.925 2  24972312.885 2  24972314.018 2
 121729666.563 7  94854280.634 4  23164381.773 4  23164382.817 4
 111811083.093 8  87125511.885 6  21276936.653 6  21276938.627 6
 130142251.289 7 101409549.877 4  24765247.655 4  24765245.383 4
 107843729.911 8  84034078.344 7  20521976.818 7  20521975.224 7
 124677403.205 7  97151220.766 4  23725317.865 4  23725316.918 4
 116841826.527 8  91045587.597 6  22234254.585 6  22234256.276 6
 118666399.594 8  92467308.735 6  22581464.110 6  22581466.385 6
 18 01 01 00 15 30.0000000  0 10G05G16G18G20G21G25G26G27G29G31       0.000000000
 127385217.767 7  99261196.277 4  24240592.632 4  24240594.711 4
 114370531.705 8  89119867.687 5  21763983.833 5  21763986.005 5
 131142118.278 6 102188654.483 2  24955513.151 2  24955513.949 2
 121674780.829 7  94811512.537 4  23153937.158 4  23153938.375 4
 111789791.965 8  87108921.399 6  21272885.113 6  21272886.974 6
 130249634.835 7 101493225.347 4  24785682.044 4  24785680.700 4
 107816893.209 8  84013166.617 7  20516869.894 7  20516868.610 7
 124579771.448 7  97075144.133 4  23706739.105 4  23706737.716 4
 116926260.754 8  91111380.492 5  22250321.992 5  22250323.709 5
 118757184.214 8  92538049.989 5  22598739.625 5  22598742.061 5
 18 01 01 00 16 00.0000000  0 10G05G16G18G20G21G25G26G27G29G31       0.000000000
 127412648.858 7  99282571.150 4  24245812.173 4  24245815.207 4
 114293217.938 8  89059623.197 5  21749271.716 5  21749273.415 5
 131053820.476 6 102119851.015 2  24938710.989 2  24938711.682 2
 121620349.915 7  94769098.852 4  23143579.669 4  23143580.184 4
 111768979.384 8  87092703.809 6  21268924.816 6  21268926.313 6
 130357116.122 7 101576977.010 3  24806134.879 3  24806133.119 3
 107790510.401 8  83992608.584 7  20511849.474 7  20511848.085 7
 124482281.098 7  96999177.644 4  23688187.537 4  23688186.967 4
 117010875.949 8  91177314.405 5  22266423.469 5  22266425.247 5
 118848273.735 8  92609028.825 5  22616073.838 5  22616076.069 5
 18 01 01 00 16 30.0000000  0 10G05G16G18G20G21G25G26G27G29G31       0.000000000
 127440650.301 7  99304390.475 4  24251141.829 4  24251143.305 4
 114216192.471 8  88999603.355 5  21734614.198 5  21734616.112 5
 130965512.645 6 102051039.622 2  24921906.037 2  24921905.121 2
 121566375.762 7  94727041.077 4  23133308.839 4  23133309.233 4
 111748646.164 8  87076859.752 6  21265055.525 6  21265057.188 6
 130464693.907 7 101660803.857 3  24826605.999 3  24826604.704 3
 107764582.671 8  83972405.160 7  20506915.544 7  20506913.772 7
 124384932.924 7  96923322.021 4  23669662.718 4  23669661.909 4
 117095670.155 8  91243387.795 5  22282559.082 5  22282561.159 5
 118939665.341 8  92680243.056 5  22633465.199 5  22633467.112 5
 18 01 01 00 17 00.0000000  0 10G05G16G18G20G21G25G26G27G29G31       0.000000000
 127469220.856 7  99326653.268 4  24256577.725 4  24256580.385 4
 114139457.304 8  88939809.730 5  21720012.204 5  21720013.985 5
 130877197.411 6 101982222.653 2  24905101.617 2  24905100.556 2
 121512861.732 7  94685341.844 4  23123124.701 4  23123126.055 4
 111728793.068 8  87061389.810 6  21261277.635 6  21261279.162 6
 130572366.879 7 101744704.852 4  24847096.534 4  24847094.068 4
 107739111.337 8  83952557.362 7  20502068.417 7  20502067.062 7
 124287727.911 7  96847577.855 4  23651164.532 4  23651163.999 4
 117180642.667 8  91309600.129 5  22298728.979 5  22298730.812 5
 119031356.604 8  92751690.771 5  22650913.560 5  22650915.482 5
 18 01 01 00 17 30.0000000  0 10G05G16G18G20G21G25G26G27G29G31       0.000000000
 127498359.976 7  99349359.104 4  24262122.730 4  24262124.570 4
 114063014.068 8  88880243.571 6  21705465.367 6  21705467.360 6
 130788877.519 5 101913401.836 2  24888294.693 2  24888291.657 2
 121459809.827 7  94644002.713 4  23113029.610 4  23113030.410 4
 111709419.046 8  87046293.184 6  21257590.858 6  21257592.553 6
 130680133.672 7 101828679.024 4  24867602.921 4  24867601.315 4
 107714097.572 8  83933066.112 7  20497308.401 7  20497307.291 7
 124190667.069 7  96771946.060 4  23632694.643 4  23632694.458 4
 117265792.009 8  91375950.255 5  22314932.462 5  22314934.214 5
 119123344.623 8  92823369.727 6  22668418.129 6  22668420.137 6
 18 01 01 00 18 00.0000000  0 10G05G16G18G20G21G25G26G27G29G31       0.000000000
 127528066.774 7  99372507.253 4  24267775.947 4  24267778.228 4
 113986864.665 8  88820906.369 6  21690974.484 6  21690976.695 6
 130700555.047 6 101844579.164 2  24871486.735 2  24871487.967 2
 121407222.396 7  94603025.506 4  23103022.289 4  23103023.576 4
 111690524.701 8  87031570.331 6  21253995.369 6  21253996.900 6
 130787993.117 7 101912725.327 4  24888128.384 4  24888125.715 4
 107689542.602 8  83913932.364 7  20492635.878 7  20492634.464 7
 124093751.299 7  96696427.330 4  23614252.947 4  23614252.082 4
 117351116.936 8  91442437.185 5  22331169.111 5  22331170.766 5
 119215626.901 8  92895278.000 5  22685979.036 5  22685980.981 5
 18 01 01 00 18 30.0000000  0 10G05G16G18G20G21G25G26G27G29G31       0.000000000
 127558340.178 7  99396096.929 4  24273536.846 4  24273538.836 4
 113911010.856 8  88761799.500 6  21676539.899 6  21676542.097 6
 130612232.615 6 101775756.402 3  24854679.225 3  24854680.705 3
 121355101.471 7  94562411.798 4  23093103.823 4  23093104.902 4
 111672110.409 8  87017221.533 6  21250491.285 6  21250492.907 6
 130895943.805 7 101996842.745 3  24908670.414 3  24908669.155 3
 107665447.629 8  83895157.050 7  20488050.890 7  20488049.296 7
 123996981.492 7  96621022.332 4  23595838.032 4  23595836.863 4
 117436615.906 8  91509059.745 5  22347439.280 5  22347441.068 5
 119308201.074 8  92967413.706 5  22703594.506 5  22703597.325 5
 18 01 01 00 19 00.0000000  0 10G05G16G18G20G21G25G26G27G29G31       0.000000000
 127589179.571 7  99420127.592 4  24279405.256 4  24279407.923 4
 113835454.837 8  88702924.690 6  21662162.098 6  21662164.470 6
 130523912.709 6 101706935.691 2  24837873.643 2  24837873.871 2
 121303449.577 7  94522163.603 4  23083275.108 4  23083275.997 4
 111654175.809 8  87003246.522 6  21247078.520 6  21247079.961 6
 131003984.475 7 102081030.306 4  24929229.625 4  24929228.383 4
 107641813.853 8  83876741.123 7  20483553.713 7  20483552.029 7
 123900358.600 7  96545731.805 4  23577450.921 4  23577450.457 4
 117522287.651 8  91575816.921 5  22363742.011 5  22363743.996 5
 119401064.131 8  93039774.513 5  22721266.192 5  22721268.410 5
 18 01 01 00 19 30.0000000  0 10G05G16G18G20G21G25G26G27G29G31       0.000000000
 127620584.122 7  99444598.671 4  24285381.351 4  24285383.470 4
 113760198.155 8  88644283.118 6  21647841.432 6  21647843.360 6
 130435597.687 5 101638118.870 2  24821068.601 2  24821064.871 2
 121252268.923 7  94482282.574 4  23073535.990 4  23073536.858 4
 111636720.331 8  86989644.852 6  21243756.977 6  21243758.250 6
 131112113.826 7 102165286.934 3  24949806.337 3  24949804.289 3
 107618642.468 8  83858685.505 7  20479144.465 7  20479142.666 7
 123803883.555 7  96470556.457 4  23559091.950 4  23559091.814 4
 117608130.562 8  91642707.501 5  22380077.326 5  22380079.111 5
 119494213.568 8  93112358.469 5  22738991.914 5  22738994.343 5
 18 01 01 00 20 00.0000000  0 10G05G16G18G20G21G25G26G27G29G31       0.000000000
 127652552.834 7  99469509.391 4  24291464.623 4  24291466.923 4
 113685242.815 8  88585876.354 6  21633578.043 6  21633579.880 6
 130347290.323 6 101569307.785 2  24804263.487 2  24804265.244 2
 121201561.858 7  94442770.592 4  23063887.239 4  23063887.500 4
 111619744.416 7  86976416.864 6  21240526.453 6  21240527.991 6
 131220330.613 7 102249611.738 3  24970399.192 3  24970397.228 3
 107595934.677 8  83840991.112 7  20474823.460 7  20474821.590 7
 123707557.318 7  96395497.063 4  23540762.023 4  23540761.218 4
 117694142.891 8  91709730.088 5  22396444.945 5  22396446.855 5
 119587646.801 8  93185163.600 5  22756771.403 5  22756773.656 5
 18 01 01 00 20 30.0000000  0 10G05G16G18G20G21G25G26G27G29G31       0.000000000
 127685084.287 7  99494858.577 4  24297655.597 4  24297657.944 4
 113610590.727 8  88527705.907 6  21619372.333 6  21619374.123 6
 130258993.201 7 101500505.025 2  24787460.337 2  24787462.267 2
 121151330.553 7  94403629.336 4  23054328.023 4  23054329.010 4
 111603248.186 8  86963562.682 6  21237387.177 6  21237388.741 6
 131328633.442 7 102334003.534 4  24991008.918 4  24991006.592 4
 107573691.599 8  83823658.842 7  20470590.684 7  20470588.591 7
 123611380.799 7  96320554.380 4  23522460.034 4  23522459.847 4
 117780324.410 8  91776884.493 5  22412844.826 5  22412846.793 5
 119681361.096 7  93258187.689 5  22774604.654 5  22774607.264 5
 18 01 01 00 21 00.0000000  0 10G05G16G18G20G21G25G26G27G29G31       0.000000000
 127718177.779 7  99520645.689 4  24303952.805 4  24303955.002 4
 113536243.869 8  88469773.288 6  21605224.137 6  21605226.278 6
 130170709.011 7 101431712.083 3  24770659.584 3  24770662.448 3
 121101577.591 7  94364860.797 4  23044859.984 4  23044861.023 4
 111587231.689 8  86951082.306 6  21234339.194 6  21234340.961 6
 131437021.049 7 102418461.400 3  25011634.219 3  25011632.995 3
 107551914.408 8  83806689.609 7  20466446.394 7  20466444.622 7
 123515354.989 7  96245729.126 4  23504187.150 4  23504185.822 4
 117866673.293 8  91844169.310 5  22429276.595 5  22429278.095 5
 119775353.636 8  93331428.615 5  22792490.680 5  22792493.313 5
 18 01 01 00 21 30.0000000  0 10G05G16G18G20G21G25G26G27G29G31       0.000000000
 127751832.396 7  99546870.078 4  24310357.264 4  24310359.366 4
 113462203.782 8  88412079.704 6  21591134.922 6  21591137.060 6
 130082440.184 6 101362931.212 2  24753862.663 2  24753864.132 2
 121052304.880 7  94326466.502 4  23035483.653 4  23035484.533 4
 111571694.282 8  86938975.242 6  21231382.365 6  21231384.008 6
 131545492.077 7 102502984.313 4  25032275.511 4  25032273.619 4
 107530604.266 8  83790084.299 7  20462391.285 7  20462389.450 7
 123419480.715 7  96171021.936 4  23485942.850 4  23485941.663 4
 117953187.826 8  91911583.207 5  22445739.830 5  22445741.346 5
 119869622.099 8  93404884.582 5  22810429.175 5  22810432.058 5
 18 01 01 00 22 00.0000000  0 10G05G16G18G20G21G25G26G27G29G31       0.000000000
 127786047.004 7  99573530.769 4  24316868.304 4  24316870.358 4
 113388472.609 8  88354626.828 5  21577104.405 5  21577106.455 5
 129994189.302 6 101294164.282 2  24737069.922 2  24737070.463 2
 121003514.774 7  94288448.249 4  23026199.317 4  23026200.436 4
 111556636.385 8  86927241.809 6  21228516.972 6  21228518.911 6
 131654045.306 7 102587571.237 3  25052932.220 3  25052930.789 3
 107509762.346 8  83773843.835 7  20458425.264 7  20458423.564 7
 123323758.937 7  96096433.541 4  23467727.530 4  23467726.516 4
 118039867.104 8  91979125.508 5  22462234.206 5  22462236.208 5
 119964163.744 8  93478553.373 5  22828420.220 5  22828422.163 5
 18 01 01 00 22 30.0000000  0 10G05G16G18G20G21G25G26G27G29G31       0.000000000
 127820820.350 7  99600626.923 4  24323484.342 4  24323487.098 4
 113315052.451 8  88297416.321 6  21563133.044 6  21563134.751 6
 129905958.454 5 101225412.852 2  24720280.138 2  24720280.101 2
 120955209.297 7  94250807.630 4  23017007.973 4  23017008.110 4
 111542057.975 8  86915882.012 6  21225742.741 6  21225744.932 6
 131762679.274 7 102672221.133 3  25073604.978 3  25073602.915 3
 107489389.715 8  83757969.053 7  20454548.515 7  20454546.943 7
 123228190.643 7  96021964.812 5  23449541.106 5  23449540.408 5
 118126709.566 8  92046794.942 5  22478759.892 5  22478761.643 5
 120058975.836 8  93552432.902 5  22846462.538 5  22846464.940 5
 18 01 01 00 23 00.0000000  0 10G05G16G18G20G21G25G26G27G29G31       0.000000000
 127856151.670 7  99628157.835 4  24330208.138 4  24330210.866 4
 113241944.905 8  88240449.409 5  21549220.807 5  21549223.005 5
 129817750.958 6 101156679.795 2  24703494.060 2  24703493.891 2
 120907390.716 7  94213546.388 4  23007908.167 4  23007908.618 4
 111527958.728 7  86904895.607 6  21223059.848 6  21223061.653 6
 131871392.852 7 102756932.974 3  25094292.828 3  25094290.877 3
 107469487.513 8  83742460.844 7  20450761.153 7  20450759.152 7
 123132776.606 7  95947616.219 4  23431384.766 4  23431384.087 4
 118213713.985 8  92114590.579 5  22495315.757 5  22495317.624 5
 120154055.619 8  93626521.048 5  22864555.711 5  22864558.042 5
 18 01 01 00 23 30.0000000  0 10G05G16G18G20G21G25G26G27G29G31       0.000000000
 127892039.632 7  99656122.501 4  24337037.571 4  24337039.841 4
 113169152.099 8  88183727.741 6  21535368.941 6  21535371.149 6
 129729569.263 6 101087966.864 2  24686713.429 2  24686715.235 2
 120860061.257 7  94176666.327 4  22998901.085 4  22998901.934 4
 111514338.334 8  86894282.336 6  21220468.131 6  21220469.943 6
 131980184.605 7 102841705.762 3  25114994.836 3  25114993.749 3
 107450056.843 8  83727320.074 7  20447063.292 7  20447061.857 7
 123037517.883 7  95873388.623 4  23413257.028 4  23413256.830 4
 118300879.133 8  92182511.438 5  22511902.951 5  22511904.521 5
 120249400.639 8  93700815.880 5  22882699.382 5  22882700.969 5
 18 01 01 00 24 00.0000000  0 10G05G16G18G20G21G25G26G27G29G31       0.000000000
 127928483.072 7  99684519.982 4  24343972.449 4  24343974.684 4
 113096675.522 8  88127252.488 6  21521577.455 6  21521579.378 6
 129641415.638 6 101019275.693 2  24669938.186 2  24669941.230 2
 120813223.381 7  94140169.282 4  22989988.095 4  22989988.950 4
 111501197.004 8  86884042.345 6  21217967.292 6  21217968.955 6
 132089053.278 7 102926538.530 3  25135710.915 3  25135709.622 3
 107431098.861 8  83712547.607 7  20443455.694 7  20443454.475 7
 122942415.479 7  95799282.906 5  23395160.541 5  23395159.342 5
 118388203.418 8  92250556.303 5  22528520.555 5  22528522.530 5
 120345008.258 8  93775315.288 5  22900893.126 5  22900894.919 5
 18 01 01 00 24 30.0000000  0 10G05G16G18G20G21G25G26G27G29G31       0.000000000
 127965480.826 7  99713349.382 4  24351013.162 4  24351015.420 4
 113024517.294 8  88071025.305 6  21507846.118 6  21507848.288 6
 129553292.811 7 100950608.510 3  24653169.516 3  24653172.422 3
 120766878.902 7  94104056.706 4  22981169.233 4  22981170.198 4
 111488534.255 8  86874175.271 6  21215557.588 6  21215559.427 6
 132197997.517 6 103011430.121 3  25156442.591 3  25156440.732 3
 107412614.571 8  83698144.263 7  20439938.342 7  20439937.167 7
 122847470.203 7  95725299.601 5  23377092.749 5  23377092.118 5
 118475685.895 8  92318724.447 5  22545167.735 5  22545169.770 5
 120440875.449 8  93850016.995 5  22919135.880 5  22919138.027 5
 18 01 01 00 25 00.0000000  0 10G05G16G18G20G21G25G26G27G29G31       0.000000000
 128003031.982 7  99742610.012 4  24358158.998 4  24358161.403 4
 112952679.269 8  88015047.615 6  21494175.522 6  21494177.784 6
 129465203.273 6 100881967.403 3  24636407.031 3  24636408.393 3
 120721029.700 7  94068330.077 4  22972444.350 4  22972445.271 4
 111476350.126 8  86864681.152 6  21213238.841 6  21213240.851 6
 132307016.016 7 103096379.621 3  25177188.456 3  25177186.829 3
 107394605.108 8  83684110.908 7  20436511.416 7  20436509.528 7
 122752682.924 7  95651439.420 4  23359055.239 4  23359054.191 4
 118563324.870 8  92387014.538 5  22561845.063 5  22561846.805 5
 120536999.524 8  93924918.850 5  22937427.682 5  22937430.104 5
 18 01 01 00 25 30.0000000  0 10G05G16G18G20G21G25G26G27G29G31       0.000000000
 128041135.138 7  99772300.789 4  24365409.180 4  24365411.877 4
 112881163.206 8  87959320.809 6  21480566.403 6  21480568.678 6
 129377149.622 7 100813354.152 3  24619650.216 3  24619653.173 3
 120675678.257 7  94032991.310 4  22963814.110 4  22963814.888 4
 111464644.170 8  86855559.636 6  21211011.244 6  21211013.476 6
 132416107.460 7 103181385.976 3  25197947.754 3  25197946.357 3
 107377071.520 8  83670448.371 7  20433174.906 7  20433173.031 7
 122658054.658 7  95577703.112 5  23341048.064 5  23341047.074 5
 118651119.416 8  92455425.850 5  22578551.608 5  22578553.676 5
 120633378.274 8  94000019.185 5  22955768.235 5  22955770.189 5
 18 01 01 00 26 00.0000000  0 10G05G16G18G20G21G25G26G27G29G31       0.000000000
 128079789.020 7  99802420.687 4  24372765.227 4  24372767.326 4
 112809971.205 8  87903846.523 6  21467019.189 6  21467021.455 6
 129289134.633 6 100744771.044 3  24602901.423 3  24602902.623 3
 120630826.285 7  93998041.733 4  22955278.637 4  22955279.809 4
 111453416.227 7  86846810.601 6  21208874.672 6  21208876.668 6
 132525270.509 7 103266448.074 3  25218721.137 3  25218719.290 3
 107360014.862 8  83657157.480 7  20429929.174 7  20429927.575 7
 122563586.334 7  95504091.461 5  23323071.300 5  23323070.254 5
 118739068.256 8  92523957.392 5  22595287.885 5  22595289.751 5
 120730008.758 8  94075315.648 5  22974155.958 5  22974158.485 5
 18 01 01 00 26 30.0000000  0 10G05G16G18G20G21G25G26G27G29G31       0.000000000
 128118992.520 7  99832968.911 3  24380225.172 3  24380227.918 3
 112739105.312 8  87848626.337 6  21453534.018 6  21453536.308 6
 129201160.851 6 100676220.089 3  24586161.018 3  24586162.151 3
 120586476.305 7  93963483.334 4  22946839.151 4  22946840.348 4
 111442666.450 7  86838434.173 6  21206829.057 6  21206831.072 6
 132634503.831 7 103351564.933 3  25239507.792 3  25239505.484 3
 107343436.206 8  83644239.045 7  20426774.404 7  20426772.663 7
 122469278.834 7  95430605.132 5  23305124.940 5  23305123.957 5
 118827169.875 8  92592607.981 5  22612053.313 5  22612054.775 5
 120826888.287 8  94150806.185 5  22992591.675 5  22992593.775 5
 18 01 01 00 27 00.0000000  0 10G05G16G18G20G21G25G26G27G29G31       0.000000000
 128158744.477 7  99863944.467 3  24387789.508 3  24387792.349 3
 112668567.199 8  87793661.577 6  21440111.177 6  21440113.286 6
 129113230.676 7 100607703.060 2  24569428.994 2  24569429.683 2
 120542630.280 7  93929317.611 4  22938496.069 4  22938496.884 4
 111432394.592 8  86830430.129 6  21204874.537 6  21204876.294 6
 132743806.231 7 103436735.666 3  25260306.292 3  25260305.711 3
 107327336.545 8  83631693.841 7  20423710.636 7  20423709.175 7
 122375133.064 7  95357244.829 5  23287209.773 5  23287208.979 5
 118915423.117 8  92661376.719 5  22628847.444 5  22628849.209 5
 120924014.049 8  94226488.578 5  23011074.233 5  23011076.483 5
 18 01 01 00 27 30.0000000  0 10G05G16G18G20G21G25G26G27G29G31       0.000000000
 128199043.231 7  99895346.072 4  24395458.613 4  24395460.967 4
 112598358.802 8  87738953.742 6  21426750.712 6  21426752.948 6
 129025346.694 6 100539221.968 3  24552705.877 3  24552704.567 3
 120499290.205 7  93895546.139 4  22930248.465 4  22930249.554 4
 111422600.251 8  86822798.171 6  21203010.774 6  21203012.581 6
 132853176.216 7 103521959.014 3  25281119.745 3  25281118.057 3
 107311716.914 8  83619522.707 7  20420738.335 7  20420736.726 7
 122281150.051 7  95284011.335 5  23269325.366 5  23269324.784 5
 119003826.644 8  92730262.572 5  22645669.880 5  22645671.588 5
 121021383.566 8  94302360.932 5  23029603.224 5  23029604.732 5
 18 01 01 00 28 00.0000000  0 10G05G16G18G20G21G25G26G27G29G31       0.000000000
 128239887.654 7  99927172.925 4  24403231.120 4  24403232.587 4
 112528481.894 8  87684504.199 6  21413453.224 6  21413455.546 6
 128937511.478 6 100470778.927 3  24535991.287 3  24535990.415 3
 120456457.995 7  93862170.397 4  22922097.981 4  22922098.926 4
 111413283.079 8  86815538.045 6  21201237.771 6  21201239.393 6
 132962612.531 7 103607234.100 3  25301943.931 3  25301942.596 3
 107296578.352 8  83607726.417 7  20417857.600 7  20417855.807 7
 122187330.567 7  95210905.251 4  23251471.796 4  23251470.827 4
 119092379.266 8  92799264.598 5  22662520.734 5  22662522.427 5
 121118993.885 8  94378420.919 5  23048177.780 5  23048179.704 5
 18 01 01 00 28 30.0000000  0 10G05G16G18G20G21G25G26G27G29G31       0.000000000
 128281276.010 7  99959423.597 4  24411106.810 4  24411108.923 4
 112458938.673 8  87630314.677 6  21400219.774 6  21400221.729 6
 128849727.889 6 100402376.074 2  24519285.587 2  24519287.176 2
 120414135.356 7  93829191.725 4  22914043.949 4  22914045.219 4
 111404442.677 8  86808649.435 6  21199555.627 6  21199557.118 6
 133072113.820 6 103692559.768 3  25322781.804 3  25322779.878 3
 107281921.856 8  83596305.762 7  20415068.635 7  20415067.015 7
 122093675.642 7  95137927.413 4  23233649.916 4  23233649.384 4
 119181079.442 8  92868381.595 5  22679400.286 5  22679401.945 5
 121216842.586 8  94454666.664 5  23066797.974 5  23066799.468 5
 18 01 01 00 29 00.0000000  0 10G05G16G18G20G21G25G26G27G29G31       0.000000000
 128323207.529 7  99992097.524 4  24419086.461 4  24419088.215 4
 112389730.617 8  87576386.332 6  21387050.113 6  21387051.993 6
 128761998.604 6 100334015.701 2  24502592.112 2  24502592.201 2
 120372324.899 7  93796612.182 4  22906087.766 4  22906089.175 4
 111396079.148 7  86802132.406 6  21197963.975 6  21197965.618 6
 133181678.736 6 103777935.027 3  25343630.775 3  25343629.634 3
 107267748.400 8  83585261.503 7  20412371.581 7  20412369.704 7
 122000186.098 7  95065078.422 5  23215859.678 5  23215858.286 5
 119269926.170 8  92937612.787 5  22696307.232 5  22696308.727 5
 121314926.791 8  94531095.883 5  23085462.384 5  23085464.219 5
 18 01 01 00 29 30.0000000  0 10G05G16G18G20G21G25G26G27G29G31       0.000000000
 128365680.996 7 100025193.731 4  24427168.346 4  24427171.100 4
 112320860.047 8  87522720.943 6  21373944.516 6  21373946.594 6
 128674326.212 6 100265699.475 3  24485908.837 3  24485910.234 3
 120331028.409 7  93764433.123 4  22898229.394 4  22898230.569 4
 111388191.731 7  86795986.368 6  21196463.075 6  21196464.856 6
 133291306.037 7 103863358.945 3  25364492.120 3  25364491.141 3
 107254058.983 8  83574594.425 7  20409766.463 7  20409764.535 7
 121906862.977 7  94992359.140 5  23198101.139 5  23198099.843 5
 119358918.171 8  93006957.173 5  22713241.732 5  22713242.835 5
 121413243.864 8  94607706.598 5  23104171.496 5  23104173.719 5
 18 01 01 00 30 00.0000000  0 10G05G16G18G20G21G25G26G27G29G31       0.000000000
 128408694.796 7 100058710.938 4  24435353.803 4  24435355.671 4
 112252328.584 8  87469319.810 6  21360903.319 6  21360905.885 6
 128586713.129 6 100197429.460 3  24469236.057 3  24469236.361 3
 120290247.284 7  93732655.631 4  22890468.862 4  22890469.924 4
 111380780.370 7  86790211.292 6  21195052.752 6  21195054.439 6
 133400994.301 6 103948830.266 3  25385365.926 3  25385363.784 3
 107240854.511 8  83564305.220 7  20407253.531 7  20407251.929 7
 121813707.121 7  94919770.201 5  23180374.071 5  23180372.796 5
 119448054.460 8  93076414.008 5  22730203.472 5  22730205.408 5
 121511790.868 8  94684496.482 5  23122924.073 5  23122926.242 5
 18 01 01 00 30 30.0000000  0 10G05G16G18G20G21G25G26G27G29G31       0.000000000
 128452247.337 6 100092648.044 3  24443641.473 3  24443643.483 3
 112184138.283 8  87416184.509 6  21347927.247 6  21347929.267 6
 128499161.634 6 100129207.543 3  24452575.314 3  24452577.091 3
 120249984.187 7  93701281.802 4  22882807.255 4  22882808.265 4
 111373844.443 7  86784806.682 6  21193732.962 6  21193734.477 6
 133510742.268 6 104034348.187 3  25406249.464 3  25406249.025 3
 107228136.039 8  83554394.708 7  20404833.310 7  20404831.748 7
 121720719.533 7  94847312.356 5  23162678.885 5  23162678.178 5
 119537333.504 8  93145982.065 5  22747192.866 5  22747194.568 5
 121610565.499 7  94761463.723 5  23141720.077 5  23141722.607 5
 18 01 01 00 31 00.0000000  0 10G05G16G18G20G21G25G26G27G29G31       0.000000000
 128496337.292 7 100127003.852 4  24452031.395 4  24452033.689 4
 112116290.904 8  87363316.426 6  21335016.135 6  21335018.172 6
 128411674.522 6 100061035.811 3  24435927.110 3  24435927.913 3
 120210240.625 7  93670312.818 4  22875244.212 4  22875245.393 4
 111367383.521 8  86779772.198 6  21192503.574 6  21192505.179 6
 133620548.579 6 104119911.574 3  25427145.159 3  25427143.401 3
 107215904.433 8  83544863.584 7  20402505.764 7  20402504.272 7
 121627900.991 7  94774986.253 5  23145016.025 5  23145014.754 5
 119626753.630 8  93215660.051 5  22764209.210 5  22764210.721 5
 121709564.683 7  94838605.948 5  23160559.466 5  23160561.235 5
 18 01 01 00 31 30.0000000  0 10G05G16G18G20G21G25G26G27G29G31       0.000000000
 128540962.934 7 100161777.064 4  24460523.476 4  24460526.216 4
 112048788.494 8  87310717.150 6  21322171.028 6  21322173.129 6
 128324254.620 7  99992916.463 3  24419291.592 3  24419294.508 3
 120171018.154 7  93639749.873 4  22867780.399 4  22867781.609 4
 111361397.745 8  86775107.959 6  21191364.393 6  21191366.205 6
 133730411.915 7 104205519.357 3  25448051.162 3  25448050.436 3
 107204160.650 8  83535712.584 7  20400271.093 7  20400269.354 7
 121535252.454 7  94702792.598 5  23127385.612 5  23127384.569 5
 119716314.072 8  93285447.405 5  22781251.806 5  22781253.321 5
 121808786.012 8  94915921.239 5  23179440.687 5  23179443.076 5
 18 01 01 00 32 00.0000000  0 10G05G16G18G20G21G25G26G27G29G31       0.000000000
 128586123.395 7 100196967.067 4  24469117.143 4  24469119.359 4
 111981632.659 8  87258387.933 6  21309391.815 6  21309393.571 6
 128236904.558 6  99924851.429 3  24402668.814 3  24402669.674 3
 120132319.385 7  93609595.003 4  22860416.209 4  22860417.458 4
 111355886.751 8  86770813.693 6  21190315.556 6  21190317.374 6
 133840330.921 6 104291170.496 3  25468968.634 3  25468967.390 3
 107192905.594 8  83526942.405 7  20398129.427 7  20398127.668 7
 121442774.845 7  94630732.145 5  23109787.787 5  23109786.508 5
 119806013.942 8  93355343.369 5  22798321.358 5  22798322.724 5
 121908226.553 8  94993407.385 5  23198363.408 5  23198365.632 5
 18 01 01 00 32 30.0000000  0 10G05G16G18G20G21G25G26G27G29G31       0.000000000
 128631816.871 7 100232572.386 4  24477812.334 4  24477814.795 4
 111914825.516 8  87206330.407 6  21296678.692 6  21296680.821 6
 128149626.868 7  99856842.848 3  24386060.362 3  24386063.246 3
 120094145.874 7  93579849.430 4  22853151.423 4  22853152.955 4
 111350849.558 8  86766888.622 6  21189356.894 6  21189358.682 6
 133950304.232 6 104376864.085 3  25489895.953 3  25489894.082 3
 107182140.174 8  83518553.774 7  20396080.646 7  20396078.933 7
 121350469.155 7  94558805.633 5  23092222.422 5  23092221.346 5
 119895851.746 8  93425346.820 5  22815416.992 5  22815418.519 5
 122007883.461 8  95071062.131 5  23217327.559 5  23217329.797 5
 18 01 01 00 33 00.0000000  0 10G05G16G18G20G21G25G26G27G29G31       0.000000000
 128678041.704 7 100268591.757 4  24486608.664 4  24486610.781 4
 111848369.067 8  87154546.169 6  21284032.134 6  21284034.209 6
 128062424.309 6  99788892.793 3  24369467.097 3  24369468.076 3
 120056499.196 7  93550514.383 4  22845987.866 4  22845988.977 4
 111346285.812 8  86763332.478 6  21188488.339 6  21188490.235 6
 134060330.729 6 104462598.969 3  25510833.418 3  25510831.549 3
 107171865.301 8  83510547.375 7  20394125.174 7  20394123.974 7
 121258336.256 7  94487013.789 5  23074690.549 5  23074689.309 5
 119985826.072 8  93495456.671 5  22832538.446 5  22832540.406 5
 122107754.626 8  95148883.812 5  23236332.537 5  23236334.666 5
 18 01 01 00 33 30.0000000  0 10G05G16G18G20G21G25G26G27G29G31       0.000000000
 128724796.642 7 100305024.209 3  24495506.388 3  24495507.920 3
 111782265.137 8  87103036.610 6  21271452.973 6  21271455.304 6
 127975299.332 6  99721003.215 3  24352887.201 3  24352889.477 3
 120019381.363 7  93521591.419 4  22838924.768 4  22838925.634 4
 111342195.662 8  86760145.341 6  21187709.932 6  21187712.103 6
 134170408.822 6 104548374.112 3  25531780.541 3  25531779.612 3
 107162081.864 8  83502923.914 6  20392263.418 6  20392262.050 6
 121166377.029 7  94415357.281 5  23057190.778 5  23057190.161 5
 120075935.786 8  93565672.020 5  22849686.072 5  22849687.280 5
 122207836.813 7  95226869.920 5  23255377.566 5  23255379.214 5
 18 01 01 00 34 00.0000000  0 10G05G16G18G20G21G25G26G27G29G31       0.000000000
 128772079.930 7 100341868.288 4  24504503.905 4  24504506.043 4
 111716515.736 8  87051803.312 6  21258941.288 6  21258943.821 6
 127888254.378 7  99653175.996 3  24336323.636 3  24336324.400 3
 119982794.102 7  93493081.878 4  22831962.729 4  22831963.554 4
 111338578.137 8  86757326.493 6  21187021.557 6  21187023.568 6
 134280537.257 6 104634188.497 3  25552737.391 3  25552735.485 3
 107152790.734 8  83495684.067 7  20390495.527 7  20390494.291 7
 121074592.451 7  94343836.838 5  23039724.164 5  23039724.024 5
 120166179.698 8  93635991.930 5  22866858.941 5  22866860.452 5
 122308127.279 8  95305018.325 5  23274461.973 5  23274464.432 5
 18 01 01 00 34 30.0000000  0 10G05G16G18G20G21G25G26G27G29G31       0.000000000
 128819889.733 7 100379122.687 3  24513601.282 3  24513603.473 3
 111651122.490 8  87000847.532 6  21246497.648 6  21246499.600 6
 127801292.539 6  99585413.498 3  24319775.042 3  24319776.819 3
 119946738.989 7  93464987.005 4  22825101.199 4  22825102.366 4
 111335432.547 8  86754875.390 6  21186422.981 6  21186424.676 6
 134390714.670 7 104720041.036 3  25573703.586 3  25573701.425 3
 107143992.776 8  83488828.511 7  20388821.436 7  20388820.133 7
 120982983.314 7  94272453.116 5  23022291.821 5  23022290.950 5
 120256556.828 8  93706415.647 5  22884057.034 5  22884058.723 5
 122408623.320 7  95383326.946 5  23293586.070 5  23293587.865 5
 18 01 01 00 35 00.0000000  0 10G05G16G18G20G21G25G26G27G29G31       0.000000000
 128868224.773 7 100416786.323 3  24522799.016 3  24522801.383 3
 111586087.160 8  86950170.647 6  21234121.887 6  21234123.732 6
 127714416.200 7  99517717.642 3  24303242.219 3  24303244.751 3
 119911218.048 7  93437308.365 4  22818342.391 4  22818342.534 4
 111332758.945 7  86752792.073 6  21185914.321 6  21185916.216 6
 134500939.788 6 104805930.725 2  25594679.153 2  25594676.122 2
 107135688.764 8  83482357.868 7  20387241.326 7  20387239.658 7
 120891550.657 7  94201206.942 5  23004893.730 5  23004891.944 5
 120347065.661 8  93776941.998 5  22901280.262 5  22901281.541 5
 122509322.289 7  95461793.654 5  23312748.327 5  23312750.095 5
 18 01 01 00 35 30.0000000  0 10G05G16G18G20G21G25G26G27G29G31       0.000000000
 128917083.510 6 100454858.103 3  24532096.477 3  24532099.113 3
 111521411.987 8  86899774.416 6  21221814.573 6  21221816.525 6
 127627627.953 6  99450090.434 3  24286727.350 3  24286728.501 3
 119876233.114 7  93410047.400 4  22811684.444 4  22811685.342 4
 111330557.046 7  86751076.324 6  21185495.312 6  21185497.242 6
 134611211.230 6 104891856.553 3  25615662.014 3  25615660.182 3
 107127879.632 8  83476272.818 7  20385755.146 7  20385753.512 7
 120800295.291 7  94130098.892 5  22987527.630 5  22987526.534 5
 120437705.288 8  93847570.250 5  22918528.450 5  22918530.036 5
 122610221.471 8  95540416.407 5  23331948.580 5  23331950.819 5
 18 01 01 00 36 00.0000000  0 10G05G16G18G20G21G25G26G27G29G31       0.000000000
 128966464.462 6 100493336.753 3  24541494.410 3  24541495.637 3
 111457098.650 8  86849660.119 6  21209576.225 6  21209578.190 6
 127540930.725 6  99382534.184 3  24270230.443 3  24270231.507 3
 119841785.509 7  93383205.146 4  22805129.560 4  22805130.152 4
 111328826.181 7  86749727.605 6  21185165.910 6  21185167.732 6
 134721527.746 6 104977817.462 3  25636654.641 3  25636652.876 3
 107120566.137 8  83470573.992 7  20384363.376 7  20384361.865 7
 120709218.216 7  94059129.725 5  22970195.661 5  22970195.613 5
 120528474.353 8  93918299.389 5  22935800.790 5  22935802.477 5
 122711318.277 7  95619193.131 5  23351186.819 5  23351188.478 5
 18 01 01 00 36 30.0000000  0 10G05G16G18G20G21G25G26G27G29G31       0.000000000
 129016365.495 7 100532220.686 3  24550989.404 3  24550992.168 3
 111393149.116 8  86799829.310 6  21197407.035 6  21197408.964 6
 127454326.083 7  99315050.052 3  24253749.759 3  24253750.735 3
 119807877.248 7  93356783.135 4  22798676.852 4  22798677.534 4
 111327565.510 7  86748745.277 6  21184925.967 6  21184928.189 6
 134831887.963 6 105063812.470 3  25657655.424 3  25657653.952 3
 107113749.105 8  83465262.016 7  20383066.131 7  20383064.573 7
 120618320.309 7  93988300.199 5  22952898.799 5  22952898.090 5
 120619371.433 8  93989128.250 5  22953098.153 5  22953099.777 5
 122812609.769 7  95698121.558 5  23370462.169 5  23370464.271 5
 18 01 01 00 37 00.0000000  0 10G05G16G18G20G21G25G26G27G29G31       0.000000000
 129066785.573 7 100571509.059 3  24560583.878 3  24560586.227 3
 111329565.352 8  86750283.514 6  21185307.477 6  21185309.250 6
 127367817.699 6  99247640.911 3  24237287.325 3  24237288.220 3
 119774509.880 7  93330782.625 4  22792326.669 4  22792327.913 4
 111326773.326 7  86748127.989 6  21184775.095 6  21184777.161 6
 134942290.580 6 105149840.506 3  25678664.453 3  25678662.869 3
 107107429.334 8  83460337.523 7  20381863.574 7  20381862.226 7
 120527602.446 7  93917610.997 5  22935636.417 5  22935635.407 5
 120710395.863 8  94060056.361 5  22970419.461 5  22970420.889 5
 122914093.245 7  95777199.604 5  23389773.586 5  23389775.846 5
 18 01 01 00 37 30.0000000  0 10G05G16G18G20G21G25G26G27G29G31       0.000000000
 129117722.582 7 100611200.206 3  24570277.082 3  24570279.235 3
 111266349.217 8  86701024.190 6  21173277.900 6  21173279.964 6
 127281408.162 7  99180308.815 3  24220843.657 3  24220844.875 3
 119741684.902 7  93305204.748 4  22786080.752 4  22786081.580 4
 111326451.031 7  86747876.854 6  21184713.690 6  21184715.886 6
 135052734.272 6 105235900.556 2  25699681.660 2  25699679.146 2
 107101607.613 8  83455801.116 7  20380755.765 7  20380754.348 7
 120437065.637 7  93847062.849 5  22918407.113 5  22918406.712 5
 120801545.999 8  94131082.430 5  22987764.608 5  22987766.476 5
 123015765.873 8  95856425.009 5  23409121.000 5  23409123.394 5
 18 01 01 00 38 00.0000000  0 10G05G16G18G20G21G25G26G27G29G31       0.000000000
 129169175.067 6 100651293.046 3  24580068.057 3  24580070.155 3
 111203502.488 8  86652052.713 6  21161318.264 6  21161320.628 6
 127195099.692 7  99113055.449 3  24204419.508 3  24204421.013 3
 119709404.082 7  93280050.881 4  22779937.972 4  22779939.268 4
 111326597.786 8  86747991.213 6  21184741.629 6  21184743.697 6
 135163217.787 7 105321991.565 3  25720705.915 3  25720704.152 3
 107096284.702 8  83451653.384 7  20379742.898 7  20379741.421 7
 120346710.727 7  93776656.470 5  22901213.299 5  22901212.499 5
 120892821.147 8  94202205.909 5  23005133.517 5  23005135.638 5
 123117625.171 8  95935795.920 5  23428504.344 5  23428506.719 5
 18 01 01 00 38 30.0000000  0 10G05G16G18G20G21G25G26G27G29G31       0.000000000
 129221140.867 6 100691785.906 3  24589956.889 3  24589959.196 3
 111141027.118 8  86603370.601 6  21149429.427 6  21149432.424 6
 127108894.718 7  99045882.795 3  24188015.499 3  24188017.264 3
 119677669.185 7  93255322.403 4  22773899.157 4  22773900.345 4
 111327212.762 7  86748470.430 6  21184858.830 6  21184860.675 6
 135273739.748 6 105408112.620 3  25741737.360 3  25741735.900 3
 107091461.339 8  83447894.914 7  20378825.097 7  20378823.553 7
 120256538.588 7  93706392.485 5  22884054.033 5  22884053.892 5
 120984219.832 8  94273425.634 5  23022526.572 5  23022528.387 5
 123219668.437 8  96015310.152 5  23447922.705 5  23447924.865 5
 18 01 01 00 39 00.0000000  0 10G05G16G18G20G21G25G26G27G29G31       0.000000000
 129273618.638 7 100732677.696 3  24599943.087 3  24599945.416 3
 111078924.968 8  86554979.313 6  21137612.082 6  21137614.413 6
 127022796.620 7  98978793.375 3  24171631.814 3  24171633.147 3
 119646481.458 7  93231020.302 4  22767964.407 4  22767965.016 4
 111328295.184 7  86749313.871 6  21185064.936 6  21185066.727 6
 135384298.722 6 105494262.480 3  25762775.803 3  25762773.299 3
 107087138.092 8  83444526.158 7  20378002.390 7  20378000.740 7
 120166550.208 7  93636271.671 5  22866929.677 5  22866929.101 5
